nameCity,nameCountry,longitude,latitude
Fūman,Iran,49.3095058,37.2203773
Perth,Australia,115.8604572,-31.9505269
Växjö,Sweden,14.8077914,56.8965251
Ibicaraí,Brazil,-39.5485087,-14.8483688
Bājitpur,Bangladesh,90.9081542,24.22123
Namīn,Iran,48.4782419,38.4244545
Galitsy,Russia,37.6462922,55.76303
Huaizhong,China,114.36721,27.086662
Magalalag,Philippines,121.7366394,17.5736896
Xiaoyang,China,121.441639,31.231546
Tanahgrogot,Indonesia,116.3013267,-1.8703308
København,Denmark,12.5741382,55.6838972
Kepoh,Indonesia,112.083333,-7.216667
Los Pinos,Mexico,-101.4591146,19.2312719
Voskhod,Ukraine,34.2156313,44.5132212
Horad Pinsk,Belarus,27.5615244,53.9045398
Rantauambacang,Indonesia,101.9062829,-1.3793386
Kalpáki,Greece,20.6256658,39.886025
Daxbet,Uzbekistan,66.9125,39.76389
Séléa,Comoros,43.2702822,-11.7871994
Zaokskiy,Russia,37.5455632,54.7208946
Uba,Nigeria,4.5232397,7.5143959
Erhe,China,104.423539,37.022024
Vrakháti,Greece,22.8039689,37.9578061
Pandi,China,119.582263,27.508898
Bayan Tuohai,China,123.220598,48.433225
Kavadarci,Macedonia,22.0126949,41.4410475
Masaran,Indonesia,110.9387418,-7.4703872
Matnah,Yemen,44.0270562,15.2525945
Suresnes,France,2.2289339,48.8706152
Siguiri,Guinea,-9.1788304,11.4148113
Belawang,Indonesia,114.65,-2.8166669
Al Mushannaf,Syria,36.7738708,32.7407045
Liantan,China,117.007039,30.761853
Celestynów,Poland,21.3991045,52.0424689
Tiebiancheng,China,107.853926,36.990268
Huayuan,China,109.482078,28.572029
Mehron,Tajikistan,69.28677,39.41691
Āl Ma‘ūdah,Yemen,45.3868766,14.211024
Baunu-Timbangan,Philippines,120.99406,6.00547
Zainsk,Russia,52.0111855,55.3605576
Patrocinio,Philippines,123.9333482,9.7361006
San Juan Ixcoy,Guatemala,-91.44528,15.59972
Poroj,Macedonia,20.9969544,42.0288112
Porciúncula,Brazil,-42.0979633,-20.9868314
Hannover,Germany,9.6890537,52.3723858
Del Valle,Mexico,-100.3694401,25.6564843
Köping,Sweden,15.9767049,59.5194054
Buchach,Ukraine,25.3817159,49.064831
Shuikou,China,113.810157,26.319938
Santa Catarina Ixtahuacán,Guatemala,-91.3582385,14.8548805
Beaumont,United States,-94.2743628,30.0435239
Panxi,China,113.645048,23.69589
Huangbu,China,115.138892,23.124134
Guazhou,China,113.264385,23.12911
Sinisian,Philippines,120.8483007,13.9123164
Pruzhany,Belarus,24.4554644,52.5557638
Faisalābād,Pakistan,72.9967658,31.4727877
Novopokrovka,Russia,134.49807,45.8512879
Horgo,Mongolia,99.856925,48.1862896
East End,Cayman Islands,-81.1099536,19.2996147
Czerwionka-Leszczyny,Poland,18.6793794,50.1344867
Salitral,Costa Rica,-84.179403,9.914487
Biryulëvo,Russia,37.6278499,55.590397
West Palm Beach,United States,-80.0590804,26.6654996
Bangluo,China,117.799676,28.301938
Rahama,Nigeria,8.6903172,10.4141663
Thành Phố Bà Rịa,Vietnam,107.1816257,10.508928
Severomorsk,Russia,33.4168559,69.0603424
Fermont,Canada,-67.08204,52.78345
Talca,Chile,-71.6484804,-35.4232444
Bayt Yāshūţ,Syria,36.11523,35.31025
Hrušovany u Brna,Czech Republic,16.5942897,49.0386312
Veverská Bítýška,Czech Republic,16.4368691,49.2759132
Capinzal,Brazil,-51.6044276,-27.3482312
Sovetskaya,Russia,42.1212513,49.0109213
Bistrinci,Croatia,18.4041894,45.6878582
Rogoza,Slovenia,15.6702113,46.4979131
Plavsk,Russia,37.29209,53.7111077
Sukabatu,Indonesia,108.0663,-7.0807
Jönköping,Sweden,14.0790633,57.7828753
Ala,China,-73.758719,42.746368
Boguchar,Russia,40.5529044,49.9378835
Orlando,United States,-81.4828198,28.5107872
Rongcheng,China,122.486657,37.16516
Icó,Brazil,-38.8591633,-6.4026236
Dongbang,China,120.93382,31.647135
Kaliro,Uganda,33.5028005,0.8927499
Burunday,Kazakhstan,76.840271,43.32756
Paris La Défense,France,2.233089,48.892701
Shuangfeng,China,112.175245,27.456658
Lolak,Indonesia,124.014,0.881124
Minnedosa,Canada,-99.8375158,50.2477455
Carregal,Portugal,-8.5463483,40.5753726
Burirao,Philippines,118.1437875,9.159579
Aguas del Padre,Honduras,-87.8782959,14.5748924
Sukagawa,Japan,139.2308293,36.7534267
Cala,South Africa,27.7080133,-31.5327537
Luyang,China,117.26467,31.878735
Ambelón,Greece,22.3615771,39.7451063
Ngamba,Indonesia,111.9856,-8.0146
Mapulo,Philippines,121.0299006,14.4932929
Roshal’,Russia,39.8653499,55.6583701
Vavuniya,Sri Lanka,80.499954,8.751378
Chicago,United States,-87.627893,41.8784851
Banjar Dauhpura,Indonesia,115.213781,-8.669071
Kameoka,Japan,140.1850334,37.9773385
Vilya,Russia,42.2051732,55.2571473
Breda,Netherlands,4.7680893,51.5749006
Batakte,Indonesia,123.5532073,-10.2530955
Kertorejo,Indonesia,112.2771485,-7.6633857
Huze,China,114.758301,27.859517
Gobojango,Botswana,28.783333,-21.816667
Sanyi,China,114.038535,22.625636
Cibenda,Indonesia,107.3109745,-6.9472168
Wierzawice,Poland,22.4674999,50.242123
Wates,Indonesia,110.1434668,-7.893728
Chervyen’,Belarus,28.4244728,53.7117479
Portela,Portugal,-8.5929199,40.2553096
Jiancha,China,104.053225,30.375526
Foluo,China,108.736289,18.578496
Hovd,Mongolia,91.634756,47.9795218
Rābigh,Saudi Arabia,39.0189623,22.7906701
Longwei,China,111.247393,23.415031
El Triunfo,Ecuador,-79.4056784,-2.3286839
Mae Fa Luang,Thailand,99.8913421,20.0450379
Nova Era,Brazil,-43.0343237,-19.7667781
Noginsk-9,Russia,38.5052448,56.0764877
Chaloem Phra Kiat,Thailand,102.8259445,16.356791
Tulihe,China,121.682569,50.480431
Manukaka,Indonesia,119.5876,-9.5972
Zeya,Russia,127.51838,50.2588049
Humen,China,113.672784,22.814704
Bogorejo,Indonesia,111.5200007,-6.9424923
Muarapinang,Indonesia,103.1048449,-3.8246952
Mufumbwe,Zambia,24.8,-13.683333
Belmullet,Ireland,-10.0320886,54.2223118
Carvalho,Portugal,-8.1984042,41.2675718
Plottier,Argentina,-68.23127,-38.956431
Mujiangping,China,109.723392,28.048158
Caeté,Brazil,-43.6644238,-19.8852788
Las Garcitas,Argentina,-59.8,-26.58333
Cartagena del Chairá,Colombia,-74.4994517,0.9463536
"Palmas De Gran Canaria, Las",Spain,-15.4331673,28.0846121
Niagara Falls,Canada,-79.1040432,43.1315785
Seshcha,Russia,33.3332803,53.7322394
Tsybulevka,Ukraine,29.1057554,47.4047584
Lawesigalagala Timur,Indonesia,97.913223,3.352913
Tais,Indonesia,112.745253,-7.267752
Huari,Peru,-77.1708039,-9.3483845
Beroroha,Madagascar,45.1658261,-21.680817
Krajan Bejagung,Indonesia,112.0637,-6.916
Gandusari,Indonesia,111.7018452,-8.1264039
Padej,Serbia,20.1844504,45.8235836
Batagay-Alyta,Russia,130.4017789,67.792809
Masaran,Indonesia,110.9387418,-7.4703872
Esmoriz,Portugal,-8.6472007,40.957279
Al Wardānīn,Tunisia,10.67397,35.70915
Molinos,Argentina,-65.426487,-24.8009137
Mpophomeni,South Africa,30.18109,-29.56225
Poitiers,France,0.3350126,46.5838069
Povorino,Russia,42.2463427,51.1907529
Kolonia Town,Micronesia,158.2083333,6.9641667
Göteborg,Sweden,12.0103839,57.7184395
Heka,China,118.0855763,24.4670098
Ribeira,Portugal,-8.0890423,41.0716946
Tebanah,Indonesia,113.2066909,-6.9295423
Guifeng,China,117.343545,28.314706
Ayní,Tajikistan,68.533658,39.3960229
Banhā,Egypt,31.1848307,30.4659929
Ressano Garcia,Mozambique,31.9925717,-25.4562038
Leiden,Netherlands,4.4833003,52.1701159
Tlogotunggal,Indonesia,111.2994071,-6.7561816
Qintang,China,109.452662,23.127149
Acarí,Peru,-74.6180833,-15.4384565
Almendra,Portugal,-7.0537674,40.9974887
Ramat HaSharon,Israel,34.840278,32.137793
Sawara,Japan,130.3331069,33.5050373
Gózd,Poland,21.3788326,51.378691
Chorkówka,Poland,21.660458,49.642816
Bakung,Indonesia,112.0714835,-8.2593984
Khafizan,Afghanistan,70.37247,34.28665
Dongqu,China,113.398577,22.513701
Charenton-le-Pont,France,2.4196694,48.8171378
San Pedro,Argentina,-58.4809081,-34.6492768
Újezd,Czech Republic,16.9050077,49.7647258
Semampir,Indonesia,112.7450068,-7.2114552
Calle Blancos,Costa Rica,-84.059822,9.948066
Melrose,Mauritius,57.6297389,-20.2695062
Royan,France,-0.4198187,45.5733817
Talashkino,Russia,32.1804491,54.6567593
Bandarbeyla,Somalia,50.8105261,9.49858
Xinxing,China,112.225334,22.69569
Quimperlé,France,-3.6006683,47.859986
Corcuera,Philippines,122.0553349,12.8074809
Senneterre,Canada,-77.23951,48.39302
Tarariras,Uruguay,-57.615575,-34.2696756
Émpa,Cyprus,32.4212424,34.8066794
Gunungangka,Indonesia,108.16434,-7.34307
Jishigang,China,121.448134,29.861346
Xiayang,China,113.778639,26.480043
Cerro de Pasco,Peru,-76.2612763,-10.6776695
Correntina,Brazil,-45.4498065,-13.4996213
Shizong,China,103.985321,24.822233
Lahan Sai,Thailand,102.8514837,14.4437531
Ouricuri,Brazil,-40.0810267,-7.8808775
Bowang,China,118.844538,31.558471
Popayán,Colombia,-76.6990172,2.481207
Khallat Ḩamāmah,Palestinian Territory,35.19243,31.7216
Saint-Quentin-en-Yvelines,France,2.0441607,48.7878212
Gościeradów,Poland,22.0128609,50.867559
Wenfu,China,107.905837,26.463923
Psachná,Greece,23.6417373,38.5774849
Ipoh,Malaysia,101.1064003,4.6096768
Jiepai,China,119.552359,30.911728
Couva,Trinidad and Tobago,-61.4493842,10.4320215
Wilkes Barre,United States,-75.8520879,41.2505888
Vanadzor,Armenia,44.4970268,40.807399
Cagmanaba,Philippines,123.3014932,13.0553726
Boca de Uchire,Venezuela,-65.4193115,10.1334914
Kahrīz,Iran,44.9801966,37.8744535
Sabugueiro,Portugal,-8.1235465,38.7649768
Svetogorsk,Russia,28.8780526,61.0962323
Yiyang,China,112.35518,28.55386
Neresnytsya,Ukraine,23.7691119,48.1172816
Villa Urquiza,Argentina,-58.2558295,-34.7507886
Smederevo,Serbia,20.9335169,44.6658941
Jiucaizhuang,China,119.282994,33.440106
Décines-Charpieu,France,4.969422,45.7593122
Santa Brigida,Philippines,120.9760496,14.68778
Naschel,Argentina,-65.3749466,-32.9150009
Riah,Morocco,-7.3860994,33.1556108
Bugko,Philippines,124.7907837,12.5350875
Nanjing,China,118.796877,32.060255
Stockholm,Sweden,18.0704829,59.3297318
Phùng,Vietnam,105.6603149,21.0877573
Cabusao,Philippines,123.055727,13.7634469
Mozhaysk,Russia,36.044913,55.499438
Linköping,Sweden,15.5930164,58.4050087
Acas,Peru,-77.3270581,-10.4571094
Liuhuang,China,116.464983,23.913205
Qorovulbozor,Uzbekistan,64.7992272,39.4900417
Tall Abyaḑ,Syria,38.9511518,36.6919385
Woshui,China,112.235945,24.561134
Quisao,Philippines,121.3345633,14.4392961
Baler Baleagung,Indonesia,114.6281974,-8.2879909
Nice,France,7.261933,43.704612
Kilifarevo,Bulgaria,25.6162991,42.9856238
Dakoutun,China,117.238073,39.585229
Anaráchi,Greece,21.5714154,40.4925406
Jiazhuang,China,114.045809,38.103168
Dyurtyuli,Russia,54.8619269,55.4787765
Ol Kalou,Kenya,36.3775152,-0.272699
Jixin,China,116.3358808,39.9080598
Ikoma,Japan,139.7523465,36.3197441
Taraz,Kazakhstan,71.3979891,42.8983715
Dushanbe,Tajikistan,68.7870384,38.5597722
Passos,Portugal,-8.408069,41.5654743
Koslan,Russia,48.8833546,63.4529778
Chegang,China,130.297964,47.349916
Quitilipi,Argentina,-60.216667,-26.883247
Hitiaa,French Polynesia,-149.3023702,-17.6059721
Triwil,Indonesia,111.0994,-6.7204
Xinxing,China,112.225334,22.69569
Matsena,Nigeria,10.0499523,13.1353074
Nanwai,China,113.143441,23.028956
Sanqiao,China,107.77215,34.943098
Aygepat,Armenia,44.5924796,39.9566253
Ebetsu,Japan,141.4864943,43.0641899
Shangtianba,China,103.519862,27.910242
Yangkou,China,122.235084,40.667433
Junik,Kosovo,20.2775059,42.4762027
Shentong,China,117.9249002,35.8939566
Concordia,Peru,-74.750168,-4.579855
Neringa,Lithuania,25.2760017,54.6879925
Shatian,China,113.618216,22.919769
Taoyuan,China,121.3009798,24.9936281
Fujishiro,Japan,135.2088227,34.1470534
Buutuo,Liberia,-8.341016,6.8251698
Dushu,China,120.7062535,31.267134
Cholet,France,-0.8494862,47.0682122
Xiayang,China,113.778639,26.480043
Sumqayıt,Azerbaijan,49.6317411,40.5854765
Buenaventura,Colombia,-77.2864879,3.2572094
Shuangxi,China,-80.017511,32.8676912
Urzhar,Kazakhstan,81.6315231,47.086965
Tiyingtali Kelod,Indonesia,115.6141801,-8.4105413
Monze,Zambia,27.4732571,-16.2803207
Czarna,Poland,21.2406149,50.0672776
Lahat,Indonesia,103.3587288,-3.8008893
Mantang,Philippines,125.4280007,11.8711517
Koronowo,Poland,17.8753018,53.3274494
Nankou,China,116.12895,40.23921
Leme,Brazil,-47.3951378,-22.2090755
Altan Emel,China,116.83333,48.66667
Lancaster,United States,-118.14,34.7
Vällingby,Sweden,17.8567134,59.3729008
Zhongbao,China,121.494708,29.884053
San Andros,Bahamas,-78.0430817,25.0522614
Sakhipur,Bangladesh,90.1869644,24.2864848
Guojiazhuang,China,116.451187,39.949418
Maoqitun,China,127.082675,44.760391
Cajati,Brazil,-48.108265,-24.7300224
Tawangsari,Indonesia,110.7897275,-7.7285206
El Galpón,Argentina,-64.9751483,-25.4809333
Guohe,China,113.447431,28.94074
Yablonovskiy,Russia,38.9254064,44.982137
Mriyunan,Indonesia,112.5766579,-6.9852949
Buraen,Indonesia,123.8969328,-10.2876794
Emmen,Netherlands,6.8700255,52.7881505
Bogdanovich,Russia,62.052215,56.7706744
Chãos,Portugal,-8.3257127,41.1782587
Chatan,Japan,127.7616484,26.3039206
Horodnytsya,Ukraine,27.3166945,50.8105808
Las Vegas,Venezuela,-68.6290501,9.5287247
Bambali,Gambia,-15.3409272,13.4776279
Shostka,Ukraine,33.4966152,51.8757044
Nizhyn,Ukraine,31.8880994,51.0377956
Kazimierz Dolny,Poland,21.9542482,51.3180409
Pejë,Kosovo,20.2887358,42.6592868
Qingkenpao,China,125.4464411,46.409427
Silca,Honduras,-86.5425921,14.8108901
Zhanghua,China,116.328206,37.029718
Gongping,China,103.552514,29.265836
Kouvola,Finland,26.7869193,60.7651227
Rungis,France,2.3572729,48.7471816
Krasnokuts’k,Ukraine,35.1582225,50.0620325
Hexi,China,117.223371,39.109563
Chennevières-sur-Marne,France,2.5333077,48.8057333
Savannakhét,Laos,105.5943388,16.5065381
Methóni,Greece,21.7063018,36.8199022
Offenbach,Germany,8.8107219,50.0809432
Lahat,Indonesia,103.3587288,-3.8008893
Dikson,Russia,30.3516338,59.9638414
Tantu,China,125.291414,43.83179
Tomari,Russia,142.0615212,47.7520885
Hacienda La Calera,Chile,-71.21667,-32.78333
Zielonka,Poland,21.2810466,52.2871973
Shilovo,Russia,40.8909987,54.3266413
Kuloy,Russia,42.4853941,61.030613
Mangaratiba,Brazil,-44.0389554,-22.9161789
Jiujie,China,119.598195,39.952319
Arvika,Sweden,12.5872695,59.6488946
Montaigu,France,-1.7555399,48.1779574
Karema,Tanzania,30.4326,-6.81357
Tewulike,China,86.8680361,42.2685369
Sansheng,China,101.273161,23.561556
Bergen,Norway,5.3446343,60.3560649
Verkhnevilyuysk,Russia,120.3197132,63.4435884
Xinjiang,China,87.5395855,42.5246357
Phra Pradaeng,Thailand,100.5633676,13.6532561
Rejoso,Indonesia,112.9475835,-7.6746075
Benito Juarez,Mexico,-96.1679447,19.1922834
Langpas,Philippines,120.9666672,6
Santo Antônio de Posse,Brazil,-46.914966,-22.6053393
Bantuanon,Philippines,125.1367621,6.3726849
Dobryanka,Russia,56.4158867,58.3971367
Anambongan,Philippines,120.3920116,15.868716
Avignon,France,4.8762265,43.9770581
Glubokiy,Russia,37.5709037,55.7557791
Sośnicowice,Poland,18.5286275,50.2718641
Jambuir Timur,Indonesia,114.3304,-7.1532
Jicun,China,114.406305,37.870792
Badrah,Mongolia,101.9927979,49.615051
Chengdong,China,101.803717,36.599744
Nizhnyaya Salda,Russia,60.7098352,58.0916417
Siewierz,Poland,19.2302203,50.4665752
Santa Catarina Ixtahuacán,Guatemala,-91.3582385,14.8548805
Serednye,Ukraine,22.5089067,48.5412136
Ko Chan,Thailand,101.3658004,13.401306
Shangzhuang,China,114.382611,38.036815
Vilque,Peru,-70.2594346,-15.7665609
Wilkes Barre,United States,-75.9142437,41.2164036
Fatou,China,116.7156302,39.793846
Hekou,China,103.93935,22.529403
Anjozorobe,Madagascar,47.8699039,-18.4001194
Cabaret,Haiti,-72.4169377,18.7338573
Zernograd,Russia,40.3138699,46.8515406
Zhangping,China,117.419998,25.290184
Xumu,China,119.669425,30.439547
Marigot,Haiti,-72.3207531,18.2336579
Mirriah,Niger,9.1594532,13.7122103
Loncoche,Chile,-72.6315127,-39.3681199
Nanzhen,China,121.749495,31.04808
Cabra Figa,Portugal,-9.3330417,38.7527042
Al ‘Āliyah,Tunisia,10.03478,37.1691
Chinoz,Uzbekistan,68.7512681,40.9463093
Pridraga,Croatia,15.5846313,44.1509604
Velké Meziříčí,Czech Republic,16.0130577,49.3560885
Montpellier,France,-0.8453268,47.3752386
Åkersberga,Sweden,18.2397247,59.4746074
Qinjiang,China,108.796556,27.775323
Jatibonico,Cuba,-79.1604971,21.9441032
Mulyosari,Indonesia,110.0196561,-7.1066698
Moravský Krumlov,Czech Republic,16.2983865,49.0337963
Nangkasari,Indonesia,107.4010519,-6.3865373
Västerås,Sweden,16.4764129,59.3754793
Fuenlabrada,Spain,-3.7968574,40.2748289
Xiashitai,China,113.4221,24.02009
Nîmes,France,4.343135,43.8177168
Ta`ū,American Samoa,-169.4366324,-14.225644
Fatikchari,Bangladesh,91.714958,22.7537259
Isla Verde,Argentina,-64.2316792,-31.4787554
Sarongan,Indonesia,113.8822686,-8.516612
Rendeng,Indonesia,111.7242031,-7.1106073
Huurch,Mongolia,105.411797,50.097858
Sudogda,Russia,40.8600241,55.951057
Xirikxiy,China,88.027707,47.357916
Foumbouni,Comoros,43.492161,-11.8648237
Båstad,Sweden,12.869882,56.4245513
Tonjongsari,Indonesia,108.1754804,-7.7408587
Gosen,Japan,139.1650556,37.7525244
Angochi,Aruba,-69.9624781,12.5179287
Bindura,Zimbabwe,31.3198491,-17.3013059
Dafeng,China,120.50085,33.200333
Palikir - National Government Center,Micronesia,158.16109,6.92477
Chexi,China,99.850365,26.312444
Sibubuhan,Indonesia,99.734444,1.0673379
Tuanjie,China,103.240546,25.456453
Světlá nad Sázavou,Czech Republic,15.4039384,49.6680095
E’erdun Wula,China,121.094913,45.437603
Toupi,China,116.19359,26.751281
Amadeo,Philippines,120.92747,14.155481
São Bartolomeu,Portugal,-9.2806096,39.2762158
Strömsund,Sweden,15.533251,63.8471115
Skalbmierz,Poland,20.3992492,50.3197113
Summerland,Canada,-119.66911,49.59977
Xianxi,China,109.1880047,35.3939908
Gaoqiao,China,108.249509,31.364902
Payao,Philippines,122.7995493,7.5932558
Sussex,Canada,-65.5108761,45.7236192
E’zhou,China,114.894843,30.39194
Batangafo,Central African Republic,18.2881709,7.3008041
Águas Belas,Brazil,-37.119659,-9.113585
Da Nang,Vietnam,108.2021667,16.0544068
Laguna,Brazil,-48.7837539,-28.4748354
Lymanske,Ukraine,29.974368,46.6794431
Bor,South Sudan,31.5655424,6.2132663
Nova Venécia,Brazil,-40.4657826,-18.4943258
Tawangsari,Indonesia,110.7897275,-7.7285206
Morteros,Argentina,-62.0729285,-31.4311903
Norton,Zimbabwe,30.6775054,-17.8766507
São Francisco do Sul,Brazil,-48.6349331,-26.2586271
Shiqiaotou,China,121.389084,31.30275
Itapevi,Brazil,-46.9772966,-23.5325624
Sanjing,China,118.796877,32.060255
Radzyń Chełmiński,Poland,18.946898,53.3800563
Būrabay,Kazakhstan,70.0973718,53.016924
Mingelchaur,Azerbaijan,47.0496015,40.7702563
Bojongbenteng,Indonesia,108.2102,-7.1278
Pytalovo,Russia,27.9195,57.063557
Ḩabūr,Yemen,43.70929,16.05287
Villanueva,Colombia,-75.275171,10.444021
Dangmu,China,109.629628,34.814591
Sérvia,Greece,22.002802,40.1858788
Ourovéni,Comoros,43.4969735,-11.9148486
Saint Petersburg,Russia,30.3403569,60.0456385
Labuhankananga,Indonesia,117.7901088,-8.1401564
Fontanka,Ukraine,30.8631957,46.5620633
Szeged,Hungary,21.66245,47.4936583
Emiliano Zapata,Mexico,-96.5943562,16.3317796
Krajan Srigonco,Indonesia,112.5618,-8.3418
Songjiang,China,121.227747,31.032243
Temperak,Indonesia,111.6809778,-6.7587465
Taiping,China,-6.2634596,53.3004898
Jambuwerkrajan,Indonesia,112.463,-8.0934
Mayakovski,Armenia,44.6342209,40.2442315
Jiandou,China,119.569989,32.434672
Jiudian,China,112.297729,34.167484
Ureshino,Japan,139.5223619,35.8559579
Caringin,Indonesia,106.8768415,-6.7387737
Aral,China,81.280527,40.547653
Phoenix,United States,-111.97,33.45
Neẖalim,Israel,34.9136,32.058597
Machado,Brazil,-45.9420118,-21.6437404
Alto Río Senguer,Argentina,-65.0612637,-42.7592642
Tipolo,Philippines,123.9266643,10.333833
Mamara,Peru,-72.591949,-14.23792
Yuyue,China,119.5738403,31.9617032
Gouyan,China,122.248779,40.819371
Gagnoa,Ivory Coast,-5.9515399,6.1514423
Praia Grande,Brazil,-46.4124616,-24.0088421
Oslo,Norway,10.7160051,59.9374398
Boguchwała,Poland,21.9314509,49.997292
Tha Mai,Thailand,102.0032957,12.647214
Shuitian,China,106.8211843,26.7418451
Hatava,Belarus,27.6290067,53.7852624
Erjiegou,China,117.906025,33.323763
Wete,Tanzania,39.7291837,-5.0559352
Sujiatuo,China,116.158066,40.079784
Dongtundu,China,113.038578,28.190756
Narathiwat,Thailand,101.8107351,6.4482939
Cheb,Czech Republic,12.3698636,50.0795334
Troyes,France,4.024099,48.305818
Paluan,Philippines,120.4189146,13.4218445
Sabirabad,Azerbaijan,48.4692545,39.9870663
Madolenihm Municipality Government,Micronesia,158.2987,6.83493
Senglea,Malta,14.51694,35.8875
Kakegawa,Japan,138.0126666,34.7728913
San Sebastián,El Salvador,-88.8190971,13.7232155
Dowan,Indonesia,111.4901903,-6.8380439
Liquica,East Timor,125.3411388,-8.5891214
Iwase,Japan,139.854819,35.2853171
Ayrihuanca,Peru,-72.6125,-14.10472
Colonia Neuland,Paraguay,-60.129002,-22.65053
Xinqiao,China,121.315718,31.058765
Miguelópolis,Brazil,-48.0309631,-20.179973
Karlskrona,Sweden,15.6309078,56.1993557
Kharlu,Russia,30.9377106,61.8099494
Ar Rawḑ,Yemen,44.81012,16.06145
Pilpichaca,Peru,-74.9975,-13.3261109
Morant Bay,Jamaica,-76.3897733,17.8886522
Wenwuba,China,115.804049,25.600871
Heshang,China,119.560304,25.941708
Tambulig,Philippines,123.535497,8.0693651
Tuwiri Wetan,Indonesia,111.9611919,-6.9013005
Jatirejo,Indonesia,112.4172256,-7.617735
Palmitas,Uruguay,-57.7992243,-33.5072907
Yuanjiazhuang,China,109.386682,34.158664
Vessada,Portugal,-8.5821839,40.5566629
Ballyhaunis,Ireland,-8.7683674,53.7942932
Point Pedro,Sri Lanka,80.1569366,9.7911208
Jiangyin,China,120.284938,31.920658
Moyynkum,Kazakhstan,72.9434124,44.2832791
Al Khafsah,Syria,38.0181686,36.2308144
Malandag,Philippines,123.9881642,12.6679167
Abuyog,Philippines,125.042795,10.668154
Tanlin,China,117.723153,24.513425
Seoam,Indonesia,124.3272134,-9.5587797
Cankova,Slovenia,16.0197222,46.718237
Sumbergayam,Indonesia,111.8240676,-8.1067604
Mabiton,Philippines,123.2470016,12.9029999
Kuluran,Indonesia,112.4142453,-6.9996952
Agen,France,2.0928189,44.2641474
Baibu,China,-115.244096,36.049805
Laveiras,Portugal,-9.2716405,38.708348
Bulung’ur,Uzbekistan,67.2728697,39.7573054
Krajan Kedungsalam,Indonesia,112.4501,-8.3251
Nuku‘alofa,Tonga,-175.204947,-21.1393418
Daojiang,China,110.666614,23.883531
Tegaldowo,Indonesia,111.5170196,-6.8695345
Oesena,Indonesia,123.8020459,-10.2168593
Liwu,China,113.49349,22.493492
Kass Wollof,Gambia,-14.93333,13.78333
Al Wardānīn,Tunisia,10.67397,35.70915
Akashi,Japan,139.0673437,37.916221
Gulyantsi,Bulgaria,24.7458579,43.5370504
Shimabara,Japan,137.0128051,35.0552848
Santa Rita,Paraguay,-55.0879338,-25.7917136
El Colorado,Argentina,-58.6564775,-34.8415903
Man,Ivory Coast,-7.5572231,7.4064275
Karukh,Afghanistan,62.6031004,34.4911201
Anjō,Japan,131.0436289,30.6509359
La Joya,Mexico,-99.1653351,19.27898
Sikasso,Mali,-5.6983979,11.3223834
Tambir,Indonesia,111.4109784,-7.9396646
Shuiyang,China,102.810415,30.115083
Kablukan,Indonesia,111.7048262,-6.9841118
Basiong,Indonesia,115.229209,-8.801499
Quintas,Portugal,-8.228543,41.1217553
Vila Chã,Portugal,-7.8160659,40.7339545
Ad Dann,Yemen,45.0186548,12.7854969
Itabuna,Brazil,-39.284293,-14.7918149
Malinaw,Philippines,126.1259807,9.7719294
Xinglongjie,China,108.892527,30.077787
Iguape,Brazil,-47.5275422,-24.5082407
Lakatoro,Vanuatu,167.4164063,-16.1001798
Sangmu,China,106.292697,28.206189
Voždovac,Serbia,20.5029521,44.6711569
San Vicente de Moravia,Costa Rica,-84.0322316,9.9748039
Narong,China,94.427663,31.385848
Vřesina,Czech Republic,18.1870189,49.9469881
Montauban,France,1.378056,44.025555
Sikeshu,China,112.6061178,33.6634952
Tambong,Philippines,121.485899,12.9684045
Santa Teresa,Philippines,121.012518,14.5999366
Baohe,China,117.309522,31.793861
Las Palomas,Paraguay,-57.5793046,-25.2935305
Novoselec,Croatia,16.5355901,45.6518526
Karmah an Nuzul,Sudan,30.41667,19.63333
Kakamigahara,Japan,136.8798013,35.4029736
Losari,Indonesia,119.4106768,-5.1463354
Chhāgalnāiya,Bangladesh,91.5184418,23.0386278
Kökar,Aland Islands,20.9091298,59.9207975
Thị Trấn Yên Ninh,Vietnam,106.0728356,20.1788256
Ḩātim,Jordan,35.77722,32.64519
Klole,Indonesia,128.18478,-3.69067
Senadan,Indonesia,106.8104633,-6.2266758
Hòa Bình,Vietnam,105.3131185,20.6861265
Cipadung Timur,Indonesia,107.7177302,-6.9253881
Gegernoong,Indonesia,108.2323,-7.3862
Dangbigih,Indonesia,113.0758,-6.97
Rumboci,Bosnia and Herzegovina,17.503469,43.8313297
Kadubamban,Indonesia,105.8994,-6.3192
Lakeland,United States,-81.9207423,28.0964047
Wucheng,China,119.571633,29.086221
Daja,Indonesia,112.906475,-7.072846
Fonte Boa,Brazil,-66.1415263,-2.4681009
Jinji,China,120.6947551,31.3115396
Pyrgetós,Greece,22.595535,39.9179113
Zherdevka,Russia,41.46056,51.84861
Bromma,Sweden,17.9873583,59.3595369
Muara,Indonesia,100.962601,-0.670315
Winston Salem,United States,-80.2438321,36.0978298
Khorixas,Namibia,14.959329,-20.3720648
Urechcha,Belarus,27.8819494,52.9520735
Drochia,Moldova,28.4339797,47.837001
Ust’-Labinsk,Russia,39.6438647,45.1888273
Velventós,Greece,22.0742782,40.2545476
Dolní Čermná,Czech Republic,16.5730485,49.981736
Aqtöbe,Kazakhstan,57.166978,50.2839339
Sai’erlong Xiang,China,102.142511,34.481923
Kai,Afghanistan,66.65,36.783333
Liuhe,China,125.744735,42.284605
Kiltamagh,Ireland,-8.9949917,53.8533151
Gandusari,Indonesia,111.7018452,-8.1264039
General Pinedo,Argentina,-58.3762722,-34.679347
Ngelak,Indonesia,110.3615247,-7.8225811
Yanjiang,China,104.677091,30.108216
Karangdalam,Indonesia,103.517665,-3.8553872
San Emilio,Philippines,120.6124166,17.228242
Vërtop,Albania,20.05389,40.62889
Cocabamba,Peru,-78.016667,-6.6
Cabaret,Haiti,-72.4169377,18.7338573
Guadalupe,Costa Rica,-84.0592667,9.9477873
Npongge,Indonesia,106.832873,-6.279197
Sidem,Indonesia,111.8002195,-8.0568365
Hexiangqiao,China,121.529927,29.916694
Cigembong,Indonesia,107.9520129,-6.8747015
Joroan,Philippines,121.0226751,14.7258963
Chiriguaná,Colombia,-73.3001233,9.3847618
San Francisco de Macorís,Dominican Republic,-70.2559638,19.2961742
Sorren Daya,Indonesia,113.2611,-6.9236
Ilopango,El Salvador,-89.1181849,13.6868163
Mar’ina Roshcha,Russia,44.0036677,56.2835999
Kedungcangkring,Indonesia,112.7137227,-7.5471852
Balsas,Brazil,-46.035885,-7.5330309
Tras Cerros,Honduras,-88.6639228,15.3047612
Panikihan,Philippines,122.0915082,13.9314921
San Diego,Costa Rica,-83.9977527,9.9010414
Tungdor,China,94.08333,29.2
Taypano,Philippines,124.55944,8.37083
Heyan,China,127.287077,47.185098
São Vicente de Ferreira,Portugal,-25.66905,37.817552
Jingping,China,116.70345,23.365556
Boden,Sweden,12.3260421,57.8857887
Palestina,Colombia,-75.6789905,5.0549877
Garibaldi,Brazil,-51.5289168,-29.2581646
Noen Maprang,Thailand,100.6534443,16.6020807
Biao,Philippines,125.4889603,7.1473706
Pervomays’k,Ukraine,30.8884315,48.0451251
Saint-Herblain,France,-1.605738,47.221906
Petite Rivière de Nippes,Haiti,-73.2337779,18.4759089
Tongyuanpu,China,123.9253791,40.796787
Castro Daire,Portugal,-7.9345589,40.8979064
Quebrada Canoa,Panama,-82.855251,8.6800991
Dalianhe,China,129.425798,46.176012
Roche-à-Bateau,Haiti,-74.0028364,18.1817674
Bayeman,Indonesia,113.1292657,-7.7326298
Runting,Indonesia,111.0479956,-6.7189946
Humpolec,Czech Republic,13.5548562,49.1809643
Kromy,Russia,35.8136035,52.664639
Fuzhai,China,114.427248,32.719163
Golema Rečica,Macedonia,20.94517,41.98803
Chittagong,Bangladesh,91.8365195,22.3348365
Diaopu,China,123.5833333,25.8333333
Stockholm,Sweden,18.068622,59.2963732
Giemdiem,Vietnam,106.56882,20.55832
Juwana,Indonesia,111.1533456,-6.7099134
Salcedo,Philippines,121.0155081,14.5560877
Roissy Charles-de-Gaulle,France,2.5479245,49.0096906
Santa Catarina Barahona,Guatemala,-90.789918,14.549394
Staraya Mayna,Russia,48.924236,54.605563
Vose’,Tajikistan,69.636351,37.8038994
Garzón,Colombia,-75.6274679,2.195403
Oroqen Zizhiqi,China,123.726201,50.591842
Fovissste,Mexico,-99.1532952,19.4344475
Levin,New Zealand,175.3756249,-40.6032394
Petaling Jaya,Malaysia,101.6454408,3.0968502
Zhaogezhuang,China,118.412764,39.765701
Itaperuna,Brazil,-41.8799408,-21.1877747
Mosetse,Botswana,26.6405956,-20.6493321
Chropyně,Czech Republic,17.3645179,49.3564402
Priozërsk,Russia,30.1341099,61.0390194
Ponta Grossa,Brazil,-50.1584514,-25.0993621
Kahabe,Indonesia,121.9306,-10.5676
Guanajay,Cuba,-82.6861446,22.9221592
Colmeal,Portugal,-8.708411,40.3876316
Hartford,United States,-72.7038047,41.7721061
Suure-Jaani,Estonia,25.4666818,58.5355022
Chengui,China,115.61166,29.866911
Lalukoen Dua,Indonesia,122.9276532,-10.8618754
Fakel,Russia,53.0252053,57.6294504
Mehar,Pakistan,67.8288595,27.1668637
Caridad,Philippines,121.0688178,14.7339333
Viñales,Cuba,-83.7066289,22.6188131
Fasito‘outa,Samoa,-171.940524,-13.8117019
Babasakhib,Afghanistan,65.983333,31.966667
San Casimiro,Venezuela,-66.9511459,9.997591
Labuhanjambu,Indonesia,118.0771515,-8.68633
Kachar,Kazakhstan,62.9833329,53.45
Shuitou,China,118.43196,24.705643
Zátor,Czech Republic,17.5929608,50.0341272
Bondoboghila,Indonesia,119.3532,-9.4116
Yangxu,China,93.888763,31.453134
Kashima-shi,Japan,140.6177909,35.9924294
Amparafaravola,Madagascar,48.2219395,-17.5872806
Tsant,Mongolia,106.7088124,46.208449
Banqiao,China,110.3838909,35.4937018
Sevilla,Spain,-5.9885456,37.439299
Pamedilan,Indonesia,114.6453131,-8.3650254
Truskolasy,Poland,18.8290392,50.8598323
Guará,Brazil,-47.7834888,-20.4894632
Nova Era,Brazil,-43.0343237,-19.7667781
Sleman,Indonesia,110.402376,-7.7325213
Palmerston North,New Zealand,175.5843632,-40.4057293
Passagem,Portugal,-8.9140418,39.8768811
Beau Vallon,Seychelles,55.4277802,-4.6210967
Vale de Vila,Portugal,-7.3592019,41.126912
Chengdong,China,101.803717,36.599744
Seoam,Indonesia,124.3272134,-9.5587797
Tsaghkadzor,Armenia,44.7159759,40.5317434
Nine,Portugal,-8.5462667,41.4578988
Minador do Negrão,Brazil,-36.8465564,-9.3228094
Kil’mez’,Russia,51.0642669,56.9438063
Guanting,China,102.801062,35.87616
El Paso,United States,-106.43,31.77
Cimuncang,Indonesia,106.1610343,-6.1130137
Siteki,Swaziland,31.9416226,-26.4417804
Reston,United States,-77.4,38.93
HanHuang,China,94.661966,40.142128
Letpandan,Myanmar,95.7563151,17.7917146
Purabaya,Indonesia,106.888644,-7.099977
Scottsdale,United States,-111.92,33.47
Tangping,China,113.993115,22.974898
Sukaharja,Indonesia,107.2932396,-6.3267969
Gaoyi,China,114.611433,37.615159
Tumpang Satu,Indonesia,112.7621319,-8.0057853
Hedi,China,115.865746,34.393136
Kurortnyy,Russia,29.8465101,60.1575299
San Jose,Philippines,121.0204582,14.5699334
Torbeck,Haiti,-73.8110279,18.1646497
Novyy Nekouz,Russia,38.0598668,57.9054081
Shaozhai,China,115.569092,33.379845
Roshnik,Albania,20.0427329,40.7316367
Quelimane,Mozambique,36.9218584,-17.8502636
Lingda,China,119.301861,31.203196
Kakaek,Indonesia,98.9952406,3.1158378
Nigríta,Greece,23.5004731,40.9084768
Koina,Gambia,-13.8651056,13.4760557
Paços,Portugal,-8.0777054,41.2684021
Chişinău,Moldova,28.6295416,47.1426
Rennes,France,-1.7128603,48.1164447
Krosno,Poland,20.506072,49.7722369
Svrljig,Serbia,22.1271404,43.4146453
Selorejo,Indonesia,112.5394091,-7.938718
Huifa,China,119.6364468,29.1082924
Zea,Venezuela,-71.7844893,8.3802672
Binuangan,Philippines,124.783907,8.919623
Tufang,China,119.9499657,30.0510093
Rabig,Indonesia,106.40417,-6.81482
Xugu,China,111.033425,38.491235
Payxambabazar,China,82.580514,41.477249
El Jem,Tunisia,10.7041509,35.2923343
Lengkongsari,Indonesia,108.230338,-7.3251615
Oranjestad,Aruba,-70.0086306,12.5092044
Trosa,Sweden,17.5331351,58.8946515
Moyuan,China,120.364428,31.559502
Pulian,China,120.643023,30.229314
Huangjin,China,114.7766667,25.8516667
Perpignan,France,2.8797149,42.6962642
Fengtai Chengguanzhen,China,116.722615,32.709243
Lëbushë,Kosovo,20.29083,42.56306
Xiatang,China,117.210612,32.197328
Dori,Burkina Faso,-0.0233208,14.0246473
Bīleh Savār,Iran,48.3501725,39.3822864
Baqiao,China,109.064671,34.273409
Kemlya,Russia,45.9028182,54.6119569
Conde,Portugal,-8.3323796,41.3922962
Uryupinsk,Russia,41.9594576,50.7326515
Novaya Tavolzhanka,Russia,36.8272273,50.3530658
Vlycháda,Greece,25.4333251,36.3384589
Fruitvale,Canada,-117.55222,49.11654
Setonokalong,Indonesia,111.9629,-8.0934
Mendeleyevo,Russia,37.2339179,56.0388248
Samaro,Pakistan,69.104948,25.917098
Kimch’aek-si,North Korea,129.1902694,40.668162
Callao,Peru,-77.1259843,-12.0508491
Renshan,China,114.807963,22.839541
Moinhos,Portugal,-8.5840028,41.5277358
Kedrovoye,Russia,60.8287334,56.6941681
La Esperanza,Mexico,-99.185752,23.7173024
Yingzai,China,109.924347,21.48227
Tsuen Wan,Hong Kong,114.1144306,22.3699122
Zeqin,China,116.023145,25.84122
Jovim,Portugal,-8.508386,41.1055663
Makiwalo,Philippines,124.800874,12.4218541
Vostryakovo,Russia,37.4429397,55.6613674
Jiang’an,China,114.309091,30.600064
Campo Grande,Brazil,-37.3399768,-5.8913185
Baru,Indonesia,108.2941031,-2.8534379
Lidingö,Sweden,18.0962527,59.3497176
Listowel,Ireland,-9.4851741,52.4460804
Łagów,Poland,15.3336362,52.3369183
Bitam,Gabon,11.4963935,2.0779721
Kontiolahti,Finland,29.8314098,62.7246159
Nossa Senhora do Socorro,Brazil,-37.1269791,-10.8531643
Myrzakent,Kazakhstan,68.5446228,40.6627728
Tbilisskaya,Russia,40.1763516,45.3913779
Yantian,China,114.236875,22.556499
São Paio Merelim,Portugal,-8.4638232,41.5823573
Polzela,Slovenia,15.0737321,46.280897
Okulovka,Russia,33.3074607,58.3495477
Kolodenka,Ukraine,26.3216758,50.5799257
Sölvesborg,Sweden,14.5468659,56.0633738
Slatina,Croatia,16.3852937,45.9589716
Cholet,France,-0.8816138,47.0615944
Salcedo,Philippines,121.0155081,14.5560877
Gucun,China,121.3971642,31.3483956
Sapele,Nigeria,5.6931356,5.8750769
Nanyuan,China,116.3877778,39.7825
Kengyuan,China,113.056042,23.681774
Dłutów,Poland,19.3967389,51.5671926
Huanggexi,China,108.8076195,23.7247599
Zemun,Serbia,20.3555646,44.8532094
Yongning,China,108.487368,22.75839
Llaillay,Chile,-70.956166,-32.8409806
Jayapura,Indonesia,140.6689995,-2.5916025
Zangbawa,China,103.8617,34.87725
Luyang,China,117.26467,31.878735
Lin’an,China,119.724733,30.233873
Satu Nou,Romania,21.2472912,45.7479837
Krajan,Indonesia,111.6556388,-7.5450262
Dushan,China,107.545048,25.822132
Okocim,Poland,20.636949,49.902219
Beaufort,Luxembourg,6.2541216,49.8117449
Kaliuda,Indonesia,120.7005044,-10.1916603
Takaka,New Zealand,172.89648,-40.864985
Cabreúva,Brazil,-47.1367011,-23.3058194
Loivos,Portugal,-7.5092352,41.6262043
Jargalant,Mongolia,100.7724281,48.7277622
Quintas,Portugal,-8.504234,41.6716076
Jintan,China,119.597896,31.723247
Huangdu,China,107.752611,28.39571
Liangjing,China,106.457478,27.145704
Montpellier,France,-0.8453268,47.3752386
Zhougang,China,116.8877403,31.5094268
Şuraabad,Azerbaijan,49.4656047,40.8123781
Podstepki,Russia,49.13286,53.516179
Salitrillos,Costa Rica,-84.0911821,9.8539292
Viitasaari,Finland,25.8645193,63.0741927
Kubangwaru,Indonesia,108.7971149,-7.3268042
Potoni,Peru,-70.094963,-14.35266
Petaling Jaya,Malaysia,101.640078,3.1035814
Kaga Bandoro,Central African Republic,19.1850317,6.9960368
Dzhetygara,Kazakhstan,61.2809373,52.2163528
Luanshya,Zambia,28.4163103,-13.1435017
Yongshan,China,103.638067,28.229112
Gävle,Sweden,17.1401083,60.706979
Jacarezinho,Brazil,-49.9783088,-23.1734868
Kedrovyy,Russia,87.372095,53.8072015
Eci,Indonesia,139.2233389,-6.1270886
Azaruja,Portugal,-7.7801629,38.7035566
Lugovskoy,Russia,68.4954039,61.065764
Beaumont,Ireland,-6.2057463,53.3870149
Falun,Sweden,15.6355,60.60646
Hajoho,Comoros,44.4883576,-12.1227634
Yauca,Peru,-74.536774,-15.67164
Ādaži,Latvia,24.3394019,57.0684709
Moyynkum,Kazakhstan,72.9434124,44.2832791
Quintela,Portugal,-8.0276048,41.3940988
Stockholm,Sweden,18.0551861,59.330173
Shaping,China,109.356166,22.180668
Yupiltepeque,Guatemala,-89.7920356,14.1950983
Malangwa,Nepal,85.5560635,26.8626548
Colonia Wanda,Argentina,-54.5655489,-25.6221943
Beijiang,China,113.1916737,23.9563274
Longtan,China,117.017536,25.075123
Minnedosa,Canada,-99.8375158,50.2477455
Yaguarón,Paraguay,-57.2875097,-25.5657319
Yanglinshi,China,111.782745,29.978663
Kiszkowo,Poland,17.2581487,52.5687063
Magang,China,115.388966,31.830035
Sofifi,Indonesia,127.5614454,0.7349651
Limatambo,Peru,-72.4493789,-13.48804
Rocky Mountain House,Canada,-114.9182883,52.3793432
Sindong,South Korea,126.939386,37.5430686
Darpas,Armenia,44.4226861,40.8381534
Jiaqu,China,88.417003,31.248842
Moche,Peru,-79.002342,-8.1637036
Wangtuan,China,105.567066,34.366396
Flying Fish Cove,Christmas Island,105.6735131,-10.4318725
Tanrake Village,Tuvalu,177.14511,-7.24562
Huajlaya,Bolivia,-64.55,-20.6
Shangjiangxu,China,110.359368,21.270702
Kuhmalahti,Finland,24.5340167,61.5074716
San Bernardino,Peru,-117.2847875,34.0643502
Henglu,China,121.022581,31.627447
Czernice Borowe,Poland,20.7180021,53.032343
Rado,Indonesia,106.7968708,-6.2271384
Rosignol,Guyana,-57.5391225,6.2792612
Jagupit,Philippines,125.5562747,9.2422286
Saidpur,Bangladesh,88.8982666,25.7829542
Secunda,South Africa,29.1913918,-26.5157792
Pau,Philippines,120.6560529,15.0929667
Shebekino,Russia,36.8953954,50.4086421
Nekhayevskiy,Russia,41.6704075,50.5193689
Mucllo,Peru,-75.022621,-11.70753
Palkino,Russia,28.0121149,57.5394675
Obo,Central African Republic,26.4916731,5.3956496
Fatuhilik,Indonesia,124.6031704,-9.805626
Hantang,China,108.093259,35.032891
Real,Portugal,-8.2760021,40.9937134
Sakurai,Japan,130.785523,33.3457623
Syktyvkar,Russia,41.1199008,45.0052663
Groblersdal,South Africa,29.38926,-25.16575
Magdalena,Peru,-77.069999,-12.0904353
Hepu,China,109.207335,21.660935
Ussuriysk,Russia,131.5243532,44.3553292
Youludu Sibage,China,82.433337,41.548437
Buriram,Thailand,103.1048449,14.4068464
Sinegorskiy,Russia,40.8393808,48.0158729
Pamiątkowo,Poland,16.9124981,52.3871271
Capinzal,Brazil,-51.6044276,-27.3482312
Sumberdadi,Indonesia,112.0565795,-8.2576917
Yang Chum Noi,Thailand,104.4024704,15.241178
Balud,Philippines,121.0601862,14.6733187
Quinjalca,Peru,-77.67806,-6.09222
Uruaçu,Brazil,-49.1468996,-14.5246488
Haczów,Poland,21.9126813,49.689425
Tielou,China,104.466646,32.904916
Panggungrejo,Indonesia,112.9148168,-7.6385033
Nanqiao,China,118.41697,32.200197
Kuala Baru,Indonesia,97.730807,2.3891028
San Pedro,Mexico,-102.9838564,25.7572143
Springfield,United States,-72.5766759,42.1014803
Pulau Pinang,Malaysia,100.3573891,5.3523231
Shuizhai,China,115.761018,23.923594
Hässleholm,Sweden,13.7676059,56.155293
Stockholm,Sweden,18.0001365,59.3146154
Wolmaransstad,South Africa,25.9586253,-27.1799941
Shāhpur Chākar,Pakistan,68.6514455,26.1517206
Taisen-ri,South Korea,126.59772,36.34931
Itajaí,Brazil,-48.6709133,-26.9107052
Wuyanquan,China,108.520914,31.364042
Oranzherei,Russia,47.56635,45.84756
Mikhaylovka,Russia,37.1465904,55.9835962
Carleton-sur-Mer,Canada,-66.0999999,48.0999989
Dapchi,Nigeria,11.5006548,12.4959322
Chaves,Portugal,-7.4731648,41.741781
Nova Petrópolis,Brazil,-51.08671,-29.362503
Beigang,China,120.2858846,23.5958633
Boynton Beach,United States,-80.109357,26.5114554
Aubagne,France,5.262028,44.255137
Coruripe,Brazil,-36.2196853,-10.0519585
Gaibei,China,120.892195,30.132798
Zabierzów,Poland,19.8106779,50.1242949
Bashtanka,Ukraine,32.4412263,47.4098736
Mobai,Sierra Leone,-11.983333,8.3
Al Ḩāmūl,Egypt,31.1252135,31.4292388
Midões,Portugal,-8.5818392,41.5023719
Ituiutaba,Brazil,-49.4600885,-18.9745738
Lecherías,Venezuela,-64.6866092,10.19062
La Huerta,Mexico,-99.2304004,19.4840721
Habiganj,Bangladesh,91.4506565,24.4771236
Thị Trấn Yên Ninh,Vietnam,106.0728356,20.1788256
Qianjiang,China,112.899762,30.402167
Qila Abdullāh,Pakistan,67.0720012,30.726207
Cagwait,Philippines,126.3014034,8.8926971
Līkak,Iran,50.0932428,30.8936954
Zhongcun,China,113.767529,26.207631
Inđija,Serbia,20.0808092,45.0485391
Omsukchan,Russia,155.7654,62.5166
Marmashen,Armenia,43.7557983,40.8428562
Presidente Epitácio,Brazil,-52.1096427,-21.7668575
Qingshandi,China,114.385538,30.63963
Jiaoyang,China,114.1002135,22.916134
Kłoczew,Poland,21.9829204,51.7300614
Hayama,Japan,140.2633467,38.1483676
Tarangnan,Philippines,124.7811016,11.9138004
Jarash,Jordan,35.8960765,32.2746515
Long Thành,Vietnam,106.9447146,10.7782801
Tangwei,China,110.079171,22.512308
Saskatoon,Canada,-106.5473023,52.1527462
Huazhuang,China,120.036434,31.889745
Guanba,China,104.559168,32.562824
Horní Libina,Czech Republic,17.0138788,49.8687559
Zelenoborskiy,Russia,32.3919624,66.870387
Yurovka,Russia,37.4153937,45.1159196
Lanhas,Portugal,-8.410695,41.6714042
Liješnica,Bosnia and Herzegovina,18.0994197,44.5241143
Peranap,Indonesia,102.026135,-0.7739574
Sukamulya,Indonesia,106.4288088,-6.1583904
Jingyang,China,108.842622,34.527114
Alajuela,Costa Rica,-84.2184331,10.0165314
Tomdibuloq,Uzbekistan,64.6273531,41.7593853
Nakkila,Finland,22.0084795,61.3660499
Al Ḩarajah,Yemen,44.233333,15.983333
Boto,Indonesia,110.7167165,-7.6155876
Rufino,Argentina,-58.4937996,-34.5688333
